 tof posE posN posU range velE velN velU u v w speed mach accE accN accU udot vdot wdot ENUToFLU_0_0 ENUToFLU_0_1 ENUToFLU_0_2 ENUToFLU_1_0 ENUToFLU_1_1 ENUToFLU_1_2 ENUToFLU_2_0 ENUToFLU_2_1 ENUToFLU_2_2 alphaRadians betaRadians alphaDegrees betaDegrees phi theta psi phiDot thetaDot psiDot p q r pdot qdot rdot gravity axialGravity sideGravity normalGravity pressure dynamicPressure rollFinCommand pitchFinCommand yawFinCommand rollFinDeflection pitchFinDeflection yawFinDeflection finOneDeflection finOneDeflectionDerived finOneRate finOneRateDerived finTwoDeflection finTwoDeflectionDerived finTwoRate finTwoRateDerived finThreeDeflection finThreeDeflectionDerived finThreeRate finThreeRateDerived finFourDeflection finFourDeflectionDerived finFourRate finFourRateDerived alphaPrimeRadians alphaPrimeDegrees sinPhiPrime cosPhiPrime rollFinDeflectionDegrees pitchFinDeflectionDegreesAeroBallisticFrame yawFinDeflectionDegreesAeroBallisticFrame totalFinDeflectionDegrees pitchRateDegreesAeroBallisticFrame yawRateDegreesAeroBallisticFrame rollRateDegrees sinOfFourTimesPhiPrime squaredSinOfTwoTimesPhiPrime CA0 CAA CAD CAOFF CYP CYDR CN0 CNP CNDQ CLLAP CLLP CLLDP CLM0 CLMP CLMQ CLMDQ CLNP mass unadjustedThrust transverseMomentOfInertia axialMomentOfInertia centerOfGravityFromNose thrust CX CY CZ CL CM CN CNA CMA CND CMD CMQ CLP CLD staticMargin lethality launch
0.0010000000 0.0007079141 0.0000000000 0.0007030106 0.0009976804 0.7095356860 -0.0000000000 0.6997286778 0.9965003882 -0.0000000000 -0.0069346020 0.9965244013 0.0029283703 4.8720065439 -0.0000000000 -4.9350097998 -0.0445500295 -0.0000000000 -6.9346077599 0.7071067812 -0.0000000000 0.7071067812 0.0000000000 1.0000000000 -0.0000000000 -0.7071067812 0.0000000000 0.7071067812 -0.0069588441 0.0000000000 -0.3987123978 0.0000000000 -0.0000000000 0.7853981634 -0.0000000000 -0.0000000000 0.0000000022 -0.0000000000 0.0000000000 0.0000000022 0.0000000000 0.0000000000 0.0000043517 0.0000000000 9.8070000000 -6.9345962031 -0.0000000000 -6.9345962031 101469.0000000000 0.6087463209 0.0000000000 0.0000000000 0.0000000000 0.0000000000 0.0000000000 0.0000000000 0.0000000000 0.0000000000 0.0000000000 0.0000000000 0.0000000000 0.0000000000 0.0000000000 0.0000000000 0.0000000000 0.0000000000 0.0000000000 0.0000000000 0.0000000000 0.0000000000 0.0000000000 0.0000000000 0.0069588441 0.3987123978 0.0000000000 -1.0000000000 0.0000000000 -0.0000000000 0.0000000000 0.0000000000 -0.0000001249 0.0000000000 -0.0000000000 -0.0000000000 0.0000000000 0.3430000000 -0.0168000000 0.0058000000 0.0000000000 -0.0022593703 0.1366012876 0.0956909755 0.0027909868 0.1366012876 -0.0001594850 -0.1562658083 0.0841329041 -0.1537700814 -0.0132904133 -23.1551000000 -1.0486773967 0.0111639471 91.9378840000 635.2600000000 59.8032160000 0.3078000000 1.5356640000 633.4600000000 0.3363016317 -0.0000000000 -0.0956909755 0.0000000000 0.1537924645 0.0000000000 7.8616160828 -11.6481586255 7.8266772557 -60.0847889008 -1326.6895042034 -8.9533712958 4.8204603250 1.4816493839 FLYING 1
0.0020000000 0.0014207003 0.0000000000 0.0014010863 0.0019953647 0.7168514467 -0.0000000000 0.6972374140 0.9999118226 -0.0000000000 -0.0138692156 1.0000078886 0.0029386068 9.7598412666 -0.0000000000 -0.0471915425 6.8678804832 -0.0000000000 -6.9346194027 0.7071067812 -0.0000000000 0.7071067812 0.0000000000 1.0000000000 -0.0000000000 -0.7071067812 0.0000000000 0.7071067812 -0.0138695508 0.0000000000 -0.7946667255 0.0000000000 -0.0000000000 0.7853981634 -0.0000000000 -0.0000000000 0.0000000087 -0.0000000000 0.0000000000 0.0000000087 0.0000000000 0.0000000000 0.0000087354 0.0000000000 9.8070000000 -6.9345962031 -0.0000000000 -6.9345962031 101469.0000000000 0.6130096715 0.0000000000 0.0000000000 0.0000000000 0.0000000000 0.0000000000 0.0000000000 0.0000000000 0.0000000000 0.0000000000 0.0000000000 0.0000000000 0.0000000000 0.0000000000 0.0000000000 0.0000000000 0.0000000000 0.0000000000 0.0000000000 0.0000000000 0.0000000000 0.0000000000 0.0000000000 0.0138695508 0.7946667255 0.0000000000 -1.0000000000 0.0000000000 -0.0000000000 0.0000000000 0.0000000000 -0.0000004994 0.0000000000 -0.0000000000 -0.0000000000 0.0000000000 0.3430000000 -0.0168000000 0.0058000000 0.0000000000 -0.0045031114 0.1362053333 0.1907200141 0.0055626671 0.1362053333 -0.0003178667 -0.1565297778 0.0842648889 -0.3064764671 -0.0264888909 -23.1551000000 -1.0453777773 0.0222506683 91.9194680000 1270.5200000000 59.8021320000 0.3078000000 1.5356280000 1268.7200000000 0.3296495990 -0.0000000000 -0.1907200141 0.0000000000 0.3065656899 0.0000000000 8.8409171780 -12.2441087557 7.8039907438 -59.8957346353 -1326.6895042034 -8.9684956370 4.8280224956 1.3849364844 FLYING 1
0.0030000000 0.0021432466 0.0000000000 0.0020991150 0.0030000125 0.7290560215 -0.0000000000 0.6996349475 1.0102370724 -0.0000000000 -0.0208038409 1.0104511412 0.0029692952 14.6496347610 -0.0000000000 4.8425850219 13.7830807887 -0.0000000000 -6.9346313742 0.7071067812 -0.0000000000 0.7071067812 0.0000000000 1.0000000000 -0.0000000000 -0.7071067812 0.0000000000 0.7071067812 -0.0205901207 0.0000000000 -1.1797270166 0.0000000000 -0.0000000000 0.7853981634 -0.0000000000 -0.0000000000 0.0000000197 -0.0000000000 0.0000000000 0.0000000197 0.0000000000 0.0000000000 0.0000132427 0.0000000000 9.8070000000 -6.9345962032 -0.0000000000 -6.9345962030 101469.0000000000 0.6258800549 0.0000000000 0.0000000000 0.0000000000 0.0000000000 0.0000000000 0.0000000000 0.0000000000 0.0000000000 0.0000000000 0.0000000000 0.0000000000 0.0000000000 0.0000000000 0.0000000000 0.0000000000 0.0000000000 0.0000000000 0.0000000000 0.0000000000 0.0000000000 0.0000000000 0.0000000000 0.0205901207 1.1797270166 0.0000000000 -1.0000000000 0.0000000000 -0.0000000000 0.0000000000 0.0000000000 -0.0000011282 0.0000000000 -0.0000000000 -0.0000000000 0.0000000000 0.3430000000 -0.0168000000 0.0058000000 0.0000000000 -0.0066851198 0.1358202730 0.2831344840 0.0082580891 0.1358202730 -0.0004718908 -0.1567864847 0.0843932423 -0.4549813861 -0.0393242339 -23.1551000000 -1.0421689415 0.0330323565 91.9010520000 1905.7800000000 59.8010480000 0.3078000000 1.5355920000 1903.9800000000 0.3231805861 -0.0000000000 -0.2831344840 0.0000000000 0.4551800625 0.0000000000 9.7932744029 -12.8241696830 7.7819284143 -59.7118818892 -1326.6895042034 -8.9832038567 4.8353766054 1.3094874253 FLYING 1
0.0040000000 0.0028804426 0.0000000000 0.0028019864 0.0040185832 0.7461513696 -0.0000000000 0.7069232372 1.0274789080 -0.0000000000 -0.0277384785 1.0278531472 0.0030204324 19.5413883754 -0.0000000000 9.7343208985 20.7010525513 -0.0000000000 -6.9346439175 0.7071067812 -0.0000000000 0.7071067812 0.0000000000 1.0000000000 -0.0000000000 -0.7071067812 0.0000000000 0.7071067812 -0.0269900877 0.0000000000 -1.5464181136 0.0000000000 -0.0000000000 0.7853981634 -0.0000000000 -0.0000000000 0.0000000353 -0.0000000000 0.0000000000 0.0000000353 0.0000000000 0.0000000000 0.0000179648 0.0000000000 9.8070000000 -6.9345962034 -0.0000000000 -6.9345962028 101469.0000000000 0.6476235225 0.0000000000 0.0000000000 0.0000000000 0.0000000000 0.0000000000 0.0000000000 0.0000000000 0.0000000000 0.0000000000 0.0000000000 0.0000000000 0.0000000000 0.0000000000 0.0000000000 0.0000000000 0.0000000000 0.0000000000 0.0000000000 0.0000000000 0.0000000000 0.0000000000 0.0000000000 0.0269900877 1.5464181136 0.0000000000 -1.0000000000 0.0000000000 -0.0000000000 0.0000000000 0.0000000000 -0.0000020210 0.0000000000 -0.0000000000 -0.0000000000 0.0000000000 0.3430000000 -0.0168000000 0.0058000000 0.0000000000 -0.0087630360 0.1354535819 0.3711403473 0.0108249268 0.1354535819 -0.0006185672 -0.1570309454 0.0845154727 -0.5964019191 -0.0515472705 -23.1551000000 -1.0391131824 0.0432997072 91.8826360000 2541.0400000000 59.7999640000 0.3078000000 1.5355560000 2539.2400000000 0.3170201757 -0.0000000000 -0.3711403473 0.0000000000 0.5967491336 0.0000000000 10.7001996914 -13.3770977926 7.7609185620 -59.5367997872 -1326.6895042034 -8.9972104249 4.8423798895 1.2501727237 FLYING 1
0.0050000000 0.0036371802 0.0000000000 0.0035145924 0.0050580345 0.7681394520 -0.0000000000 0.7191042428 1.0516401019 -0.0000000000 -0.0346731291 1.0522114267 0.0030920112 24.4351034506 -0.0000000000 14.6280170852 27.6217974245 -0.0000000000 -6.9346572752 0.7071067811 -0.0000000000 0.7071067813 0.0000000000 1.0000000000 -0.0000000000 -0.7071067813 0.0000000000 0.7071067811 -0.0329585922 0.0000000000 -1.8883882302 0.0000000000 -0.0000000000 0.7853981635 -0.0000000000 -0.0000000000 0.0000000557 -0.0000000000 0.0000000000 0.0000000557 0.0000000000 0.0000000000 0.0000229934 0.0000000000 9.8070000000 -6.9345962037 -0.0000000000 -6.9345962025 101469.0000000000 0.6786822674 0.0000000000 0.0000000000 0.0000000000 0.0000000000 0.0000000000 0.0000000000 0.0000000000 0.0000000000 0.0000000000 0.0000000000 0.0000000000 0.0000000000 0.0000000000 0.0000000000 0.0000000000 0.0000000000 0.0000000000 0.0000000000 0.0000000000 0.0000000000 0.0000000000 0.0000000000 0.0329585922 1.8883882302 0.0000000000 -1.0000000000 0.0000000000 -0.0000000000 0.0000000000 0.0000000000 -0.0000031927 0.0000000000 -0.0000000000 -0.0000000000 0.0000000000 0.3430000000 -0.0168000000 0.0058000000 0.0000000000 -0.0107008666 0.1351116118 0.4532131752 0.0132187176 0.1351116118 -0.0007553553 -0.1572589255 0.0846294627 -0.7282883941 -0.0629462743 -23.1551000000 -1.0362634314 0.0528748704 91.8642200000 3176.3000000000 59.7988800000 0.3078000000 1.5355200000 3174.5000000000 0.3112750777 -0.0000000000 -0.4532131752 0.0000000000 0.7288183315 0.0000000000 11.5459833747 -13.8933194844 7.7413251176 -59.3735210838 -1326.6895042034 -9.0102727212 4.8489110377 1.2033032643 FLYING 1
0.0060000000 0.0044183531 0.0000000000 0.0042418265 0.0061253210 0.7950222308 -0.0000000000 0.7361799251 1.0827234278 -0.0000000000 -0.0416077936 1.0835224866 0.0031840214 29.3307813196 -0.0000000000 19.5236745725 34.5453170514 -0.0000000000 -6.9346716902 0.7071067811 -0.0000000000 0.7071067813 0.0000000000 1.0000000000 0.0000000000 -0.7071067813 0.0000000000 0.7071067811 -0.0384099330 0.0000000000 -2.2007270540 0.0000000000 0.0000000000 0.7853981636 -0.0000000000 -0.0000000000 0.0000000814 -0.0000000000 0.0000000000 0.0000000814 0.0000000000 0.0000000000 0.0000284196 0.0000000000 9.8070000000 -6.9345962042 -0.0000000000 -6.9345962020 101469.0000000000 0.7196748601 0.0000000000 0.0000000000 0.0000000000 0.0000000000 0.0000000000 0.0000000000 0.0000000000 0.0000000000 0.0000000000 0.0000000000 0.0000000000 0.0000000000 0.0000000000 0.0000000000 0.0000000000 0.0000000000 0.0000000000 0.0000000000 0.0000000000 0.0000000000 0.0000000000 0.0000000000 0.0384099330 2.2007270540 0.0000000000 -1.0000000000 0.0000000000 -0.0000000000 0.0000000000 0.0000000000 -0.0000046635 0.0000000000 -0.0000000000 -0.0000000000 0.0000000000 0.3430000000 -0.0168000000 0.0058000000 0.0000000000 -0.0124707866 0.1347992729 0.5281744930 0.0154050894 0.1347992729 -0.0008802908 -0.1574671514 0.0847335757 -0.8487470671 -0.0733575685 -23.1551000000 -1.0336606079 0.0616203575 91.8458040000 3811.5600000000 59.7977960000 0.3078000000 1.5354840000 3809.7600000000 0.3060277855 -0.0000000000 -0.5281744930 0.0000000000 0.8494880669 0.0000000000 12.3184809352 -14.3654124825 7.7234294212 -59.2243902807 -1326.6895042034 -9.0222031854 4.8548762698 1.1661675298 FLYING 1
0.0070000000 0.0052288569 0.0000000000 0.0049885844 0.0072273935 0.8268016694 -0.0000000000 0.7581522460 1.1207316614 -0.0000000000 -0.0485424731 1.1217823180 0.0032964511 34.2284233076 -0.0000000000 24.4212943435 41.4716130641 -0.0000000000 -6.9346874051 0.7071067810 -0.0000000000 0.7071067814 0.0000000000 1.0000000000 0.0000000000 -0.7071067814 0.0000000000 0.7071067810 -0.0432861479 0.0000000000 -2.4801135867 0.0000000000 0.0000000000 0.7853981637 -0.0000000000 -0.0000000000 0.0000001127 -0.0000000000 0.0000000000 0.0000001127 0.0000000000 0.0000000000 0.0000343349 0.0000000000 9.8070000000 -6.9345962049 -0.0000000000 -6.9345962013 101469.0000000000 0.7713964838 0.0000000000 0.0000000000 0.0000000000 0.0000000000 0.0000000000 0.0000000000 0.0000000000 0.0000000000 0.0000000000 0.0000000000 0.0000000000 0.0000000000 0.0000000000 0.0000000000 0.0000000000 0.0000000000 0.0000000000 0.0000000000 0.0000000000 0.0000000000 0.0000000000 0.0000000000 0.0432861479 2.4801135867 0.0000000000 -1.0000000000 0.0000000000 -0.0000000000 0.0000000000 0.0000000000 -0.0000064587 0.0000000000 -0.0000000000 -0.0000000000 0.0000000000 0.3430000000 -0.0168000000 0.0058000000 0.0000000000 -0.0140539770 0.1345198864 0.5952272608 0.0173607951 0.1345198864 -0.0009920454 -0.1576534091 0.0848267045 -0.9564971399 -0.0826704529 -23.1551000000 -1.0313323868 0.0694431804 91.8273880000 4446.8200000000 59.7967120000 0.3078000000 1.5354480000 4445.0200000000 0.3013340917 -0.0000000000 -0.5952272608 0.0000000000 0.9574712153 0.0000000000 13.0094786547 -14.7883322980 7.7074217521 -59.0909930375 -1326.6895042034 -9.0328749649 4.8602121595 1.1367351983 FLYING 1
0.0080000000 0.0060735893 0.0000000000 0.0057597639 0.0083711988 0.8634797326 -0.0000000000 0.7850231682 1.1656675799 -0.0000000000 -0.0554771691 1.1669868693 0.0034292885 39.1280307321 -0.0000000000 29.3208773739 48.4006870838 -0.0000000000 -6.9347046625 0.7071067809 -0.0000000000 0.7071067815 0.0000000000 1.0000000000 0.0000000000 -0.7071067815 0.0000000000 0.7071067809 -0.0475567358 0.0000000000 -2.7248002503 0.0000000000 0.0000000000 0.7853981638 -0.0000000000 -0.0000000000 0.0000001503 -0.0000000000 0.0000000000 0.0000001503 0.0000000000 0.0000000000 0.0000408305 0.0000000000 9.8070000000 -6.9345962058 -0.0000000000 -6.9345962004 101469.0000000000 0.8348191704 0.0000000000 0.0000000000 0.0000000000 0.0000000000 0.0000000000 0.0000000000 0.0000000000 0.0000000000 0.0000000000 0.0000000000 0.0000000000 0.0000000000 0.0000000000 0.0000000000 0.0000000000 0.0000000000 0.0000000000 0.0000000000 0.0000000000 0.0000000000 0.0000000000 0.0000000000 0.0475567358 2.7248002503 0.0000000000 -1.0000000000 0.0000000000 -0.0000000000 0.0000000000 0.0000000000 -0.0000086090 0.0000000000 -0.0000000000 -0.0000000000 0.0000000000 0.3430000000 -0.0168000000 0.0058000000 0.0000000000 -0.0154405348 0.1342751997 0.6539520601 0.0190736018 0.1342751997 -0.0010899201 -0.1578165335 0.0849082668 -1.0508646299 -0.0908266750 -23.1551000000 -1.0292933312 0.0762944070 91.8089720000 5082.0800000000 59.7956280000 0.3078000000 1.5354120000 5080.2800000000 0.2972233558 -0.0000000000 -0.6539520601 0.0000000000 1.0520874284 0.0000000000 13.6146543048 -15.1593929691 7.6934022389 -58.9741637614 -1326.6895042034 -9.0422213069 4.8648853306 1.1134614680 FLYING 1
0.0090000000 0.0069574499 0.0000000000 0.0065602643 0.0095636796 0.9050583864 -0.0000000000 0.8167946555 1.2175339621 -0.0000000000 -0.0624118834 1.2191324414 0.0035825226 44.0296049025 -0.0000000000 34.2224246317 55.3325407214 -0.0000000000 -6.9347237048 0.7071067808 -0.0000000000 0.7071067816 0.0000000000 1.0000000000 0.0000000000 -0.7071067816 -0.0000000000 0.7071067808 -0.0512160737 0.0000000000 -2.9344648684 0.0000000000 0.0000000000 0.7853981640 -0.0000000000 -0.0000000000 0.0000001946 -0.0000000000 0.0000000000 0.0000001946 0.0000000000 0.0000000000 0.0000479976 0.0000000000 9.8070000000 -6.9345962070 -0.0000000000 -6.9345961992 101469.0000000000 0.9110920367 0.0000000000 0.0000000000 0.0000000000 0.0000000000 0.0000000000 0.0000000000 0.0000000000 0.0000000000 0.0000000000 0.0000000000 0.0000000000 0.0000000000 0.0000000000 0.0000000000 0.0000000000 0.0000000000 0.0000000000 0.0000000000 0.0000000000 0.0000000000 0.0000000000 0.0000000000 0.0512160737 2.9344648684 0.0000000000 -1.0000000000 0.0000000000 -0.0000000000 0.0000000000 0.0000000000 -0.0000111503 0.0000000000 -0.0000000000 -0.0000000000 0.0000000000 0.3430000000 -0.0168000000 0.0058000000 0.0000000000 -0.0166286343 0.1340655351 0.7042715684 0.0205412541 0.1340655351 -0.0011737859 -0.1579563099 0.0849781550 -1.1317252843 -0.0978154956 -23.1551000000 -1.0275461261 0.0821650163 91.7905560000 5717.3400000000 59.7945440000 0.3078000000 1.5353760000 5715.5400000000 0.2937009902 -0.0000000000 -0.7042715684 0.0000000000 1.1332064169 0.0000000000 14.1332110569 -15.4780489633 7.6813893412 -58.8740562803 -1326.6895042034 -9.0502299054 4.8688896298 1.0951544487 FLYING 1
0.0100000000 0.0078853403 0.0000000000 0.0073949873 0.0108117754 0.9515395985 -0.0000000000 0.8534686724 1.2763335884 -0.0000000000 -0.0693466178 1.2782159779 0.0037561445 48.9331474150 -0.0000000000 39.1259367836 62.2671755765 -0.0000000000 -6.9347451905 0.7071067806 -0.0000000000 0.7071067817 0.0000000000 1.0000000000 0.0000000000 -0.7071067817 -0.0000000000 0.7071067806 -0.0542793102 0.0000000000 -3.1099753867 0.0000000000 0.0000000000 0.7853981642 -0.0000000000 -0.0000000000 0.0000002463 -0.0000000000 0.0000000000 0.0000002461 0.0000000000 0.0000000000 0.0000547568 0.0000000000 9.8070000000 -6.9345962085 -0.0000000000 -6.9345961977 101469.0000000000 1.0015415208 0.0000000000 0.0000000000 0.0000000000 0.0000000000 0.0000000000 0.0000000000 0.0000000000 0.0000000000 0.0000000000 0.0000000000 0.0000000000 0.0000000000 0.0000000000 0.0000000000 0.0000000000 0.0000000000 0.0000000000 0.0000000000 0.0000000000 0.0000000000 0.0000000000 0.0000000000 0.0542793102 3.1099753867 0.0000000000 -1.0000000000 0.0000000000 -0.0000000000 0.0000000000 0.0000000000 -0.0000141096 0.0000000000 -0.0000000000 -0.0000000000 0.0000000000 0.3430000000 -0.0168000000 0.0058000000 0.0000000000 -0.0208491385 0.1341832923 0.7484836252 0.0252890401 0.1341832923 -0.0012183292 -0.1581832923 0.0851099754 -1.1742661357 -0.1264307513 -23.1551000000 -1.0282830462 0.1092943389 91.7721400000 6352.6000000000 59.7934600000 0.3078000000 1.5353400000 6350.8000000000 0.2907524135 -0.0000000000 -0.7484836252 0.0000000000 1.1760147308 0.0000000000 14.3409801484 -15.5741801093 7.6881363306 -58.9162786909 -1326.6895042034 -9.0632350389 4.8764423841 1.0859913303 FLYING 1
0.0110000000 0.0088621639 0.0000000000 0.0082688365 0.0121224229 1.0029253377 -0.0000000000 0.8950471844 1.3420692408 -0.0000000000 -0.0762813752 1.3442352413 0.0039501476 53.8386594299 -0.0000000000 44.0314149163 69.2045932381 -0.0000000000 -6.9347691733 0.7071067804 -0.0000000000 0.7071067819 0.0000000000 1.0000000000 0.0000000000 -0.7071067819 -0.0000000000 0.7071067804 -0.0567775437 0.0000000000 -3.2531136260 0.0000000000 0.0000000000 0.7853981645 -0.0000000000 -0.0000000000 0.0000003043 -0.0000000000 0.0000000000 0.0000003043 0.0000000000 0.0000000000 0.0000617314 0.0000000000 9.8070000000 -6.9345962104 -0.0000000000 -6.9345961958 101469.0000000000 1.1076716193 0.0000000000 0.0000000000 0.0000000000 0.0000000000 0.0000000000 0.0000000000 0.0000000000 0.0000000000 0.0000000000 0.0000000000 0.0000000000 0.0000000000 0.0000000000 0.0000000000 0.0000000000 0.0000000000 0.0000000000 0.0000000000 0.0000000000 0.0000000000 0.0000000000 0.0000000000 0.0567775437 3.2531136260 0.0000000000 -1.0000000000 0.0000000000 -0.0000000000 0.0000000000 0.0000000000 -0.0000174364 0.0000000000 -0.0000000000 -0.0000000000 0.0000000000 0.3430000000 -0.0168000000 0.0058000000 0.0000000000 -0.0258589769 0.1344218560 0.7855564291 0.0308714314 0.1344218560 -0.0012421856 -0.1584218560 0.0852531136 -1.1967388393 -0.1608316414 -23.1551000000 -1.0299529923 0.1422161340 91.7537240000 6987.8600000000 59.7923760000 0.3078000000 1.5353040000 6986.0600000000 0.2883476911 -0.0000000000 -0.7855564291 0.0000000000 1.1987571622 0.0000000000 14.4004389717 -15.5699766479 7.7018050256 -59.0119595558 -1326.6895042034 -9.0769037339 4.8846436011 1.0812154184 FLYING 1
0.0120000000 0.0098928264 0.0000000000 0.0091867172 0.0135025570 1.0592175742 -0.0000000000 0.9415321580 1.4147437030 -0.0000000000 -0.0832161578 1.4171888884 0.0041645280 58.7461420744 -0.0000000000 48.9388601345 76.1447952844 -0.0000000000 -6.9347956706 0.7071067802 -0.0000000000 0.7071067822 -0.0000000000 1.0000000000 0.0000000000 -0.7071067822 -0.0000000000 0.7071067802 -0.0587529677 0.0000000000 -3.3662970808 0.0000000000 0.0000000000 0.7853981648 -0.0000000000 -0.0000000000 0.0000003699 -0.0000000000 0.0000000000 0.0000003699 0.0000000000 0.0000000000 0.0000696473 0.0000000000 9.8070000000 -6.9345962127 -0.0000000000 -6.9345961935 101469.0000000000 1.2311641237 0.0000000000 0.0000000000 0.0000000000 0.0000000000 0.0000000000 0.0000000000 0.0000000000 0.0000000000 0.0000000000 0.0000000000 0.0000000000 0.0000000000 0.0000000000 0.0000000000 0.0000000000 0.0000000000 0.0000000000 0.0000000000 0.0000000000 0.0000000000 0.0000000000 0.0000000000 0.0587529677 3.3662970808 0.0000000000 -1.0000000000 0.0000000000 -0.0000000000 0.0000000000 0.0000000000 -0.0000211954 0.0000000000 -0.0000000000 -0.0000000000 0.0000000000 0.3430000000 -0.0168000000 0.0058000000 0.0000000000 -0.0298203978 0.1346104951 0.8148709439 0.0352855862 0.1346104951 -0.0012610495 -0.1586104951 0.0853662971 -1.2145086417 -0.1880333984 -23.1551000000 -1.0312734659 0.1682483286 91.7353080000 7623.1200000000 59.7912920000 0.3078000000 1.5352680000 7621.3200000000 0.2864462090 -0.0000000000 -0.8148709439 0.0000000000 1.2167921235 0.0000000000 14.4474547451 -15.5673869393 7.7126132494 -59.0876171223 -1326.6895042034 -9.0877119577 4.8911285354 1.0775176122 FLYING 1
0.0130000000 0.0109822352 0.0000000000 0.0101535369 0.0149591119 1.1204182792 -0.0000000000 0.9929255607 1.4943597600 -0.0000000000 -0.0901509685 1.4970764650 0.0043992844 63.6555966258 -0.0000000000 53.8482733774 83.0877832825 -0.0000000000 -6.9348249235 0.7071067799 -0.0000000000 0.7071067825 -0.0000000000 1.0000000000 0.0000000000 -0.7071067825 -0.0000000000 0.7071067799 -0.0602544653 0.0000000000 -3.4523265606 0.0000000000 0.0000000000 0.7853981652 -0.0000000000 -0.0000000000 0.0000004440 -0.0000000000 0.0000000000 0.0000004439 0.0000000000 0.0000000000 0.0000786013 0.0000000000 9.8070000000 -6.9345962156 -0.0000000000 -6.9345961906 101469.0000000000 1.3738788585 0.0000000000 0.0000000000 0.0000000000 0.0000000000 0.0000000000 0.0000000000 0.0000000000 0.0000000000 0.0000000000 0.0000000000 0.0000000000 0.0000000000 0.0000000000 0.0000000000 0.0000000000 0.0000000000 0.0000000000 0.0000000000 0.0000000000 0.0000000000 0.0000000000 0.0000000000 0.0602544653 3.4523265606 0.0000000000 -1.0000000000 0.0000000000 -0.0000000000 0.0000000000 0.0000000000 -0.0000254372 0.0000000000 -0.0000000000 -0.0000000000 0.0000000000 0.3430000000 -0.0168000000 0.0058000000 0.0000000000 -0.0328314296 0.1347538776 0.8371525792 0.0386407359 0.1347538776 -0.0012753878 -0.1587538776 0.0854523266 -1.2280152700 -0.2087091501 -23.1551000000 -1.0322771432 0.1880351089 91.7168920000 8258.3800000000 59.7902080000 0.3078000000 1.5352320000 8256.5800000000 0.2850009138 -0.0000000000 -0.8371525792 0.0000000000 1.2305560738 0.0000000000 14.4831909094 -15.5662541791 7.7208284596 -59.1451235936 -1326.6895042034 -9.0959271679 4.8960576615 1.0747807080 FLYING 1
0.0140000000 0.0121352998 0.0000000000 0.0111742051 0.0164990214 1.1865294252 -0.0000000000 1.0492293610 1.5809201986 -0.0000000000 -0.0970858100 1.5838983431 0.0046544177 68.5670243523 -0.0000000000 58.7596555779 90.0335587888 -0.0000000000 -6.9348571714 0.7071067796 -0.0000000000 0.7071067828 -0.0000000000 1.0000000000 0.0000000000 -0.7071067828 -0.0000000000 0.7071067796 -0.0613339281 0.0000000000 -3.5141752227 0.0000000000 0.0000000000 0.7853981657 -0.0000000000 -0.0000000000 0.0000005275 -0.0000000000 0.0000000000 0.0000005275 0.0000000000 0.0000000000 0.0000886960 0.0000000000 9.8070000000 -6.9345962189 -0.0000000000 -6.9345961873 101469.0000000000 1.5378539183 0.0000000000 0.0000000000 0.0000000000 0.0000000000 0.0000000000 0.0000000000 0.0000000000 0.0000000000 0.0000000000 0.0000000000 0.0000000000 0.0000000000 0.0000000000 0.0000000000 0.0000000000 0.0000000000 0.0000000000 0.0000000000 0.0000000000 0.0000000000 0.0000000000 0.0000000000 0.0613339281 3.5141752227 0.0000000000 -1.0000000000 0.0000000000 -0.0000000000 0.0000000000 0.0000000000 -0.0000302242 0.0000000000 -0.0000000000 -0.0000000000 0.0000000000 0.3430000000 -0.0168000000 0.0058000000 0.0000000000 -0.0349961328 0.1348569587 0.8531713827 0.0410528337 0.1348569587 -0.0012856959 -0.1588569587 0.0855141752 -1.2377255100 -0.2235734452 -23.1551000000 -1.0329987109 0.2022603012 91.6984760000 8893.6400000000 59.7891240000 0.3078000000 1.5351960000 8891.8400000000 0.2839618563 -0.0000000000 -0.8531713827 0.0000000000 1.2405133527 0.0000000000 14.5088824974 -15.5664135727 7.7267345717 -59.1864663788 -1326.6895042034 -9.1018332801 4.8996013288 1.0728885271 FLYING 1
0.0150000000 0.0133569316 0.0000000000 0.0122536331 0.0181292205 1.2575529860 -0.0000000000 1.1104455285 1.6744278072 -0.0000000000 -0.1040206856 1.6776556246 0.0049299313 73.4804265129 -0.0000000000 63.6730076626 96.9821233487 -0.0000000000 -6.9348926519 0.7071067792 -0.0000000000 0.7071067832 -0.0000000000 1.0000000000 0.0000000000 -0.7071067832 -0.0000000000 0.7071067792 -0.0620433955 0.0000000000 -3.5548247106 0.0000000000 0.0000000000 0.7853981663 -0.0000000000 -0.0000000000 0.0000006218 -0.0000000000 0.0000000000 0.0000006217 0.0000000000 0.0000000000 0.0001000399 0.0000000000 9.8070000000 -6.9345962229 -0.0000000000 -6.9345961833 101469.0000000000 1.7253059060 0.0000000000 0.0000000000 0.0000000000 0.0000000000 0.0000000000 0.0000000000 0.0000000000 0.0000000000 0.0000000000 0.0000000000 0.0000000000 0.0000000000 0.0000000000 0.0000000000 0.0000000000 0.0000000000 0.0000000000 0.0000000000 0.0000000000 0.0000000000 0.0000000000 0.0000000000 0.0620433955 3.5548247106 0.0000000000 -1.0000000000 0.0000000000 -0.0000000000 0.0000000000 0.0000000000 -0.0000356249 0.0000000000 -0.0000000000 -0.0000000000 0.0000000000 0.3430000000 -0.0168000000 0.0058000000 0.0000000000 -0.0364188649 0.1349247079 0.8636996001 0.0426381637 0.1349247079 -0.0012924708 -0.1589247079 0.0855548247 -1.2441074796 -0.2333428721 -23.1551000000 -1.0334729550 0.2116096834 91.6800600000 9528.9000000000 59.7880400000 0.3078000000 1.5351600000 9527.1000000000 0.2832789449 -0.0000000000 -0.8636996001 0.0000000000 1.2471303652 0.0000000000 14.5257680671 -15.5677010458 7.7306163119 -59.2136385600 -1326.6895042034 -9.1057150202 4.9019303729 1.0717299749 FLYING 1
0.0160000000 0.0146520439 0.0000000000 0.0133967343 0.0198566452 1.3334909368 -0.0000000000 1.1765760333 1.7748853754 -0.0000000000 -0.1109555986 1.7783500295 0.0052258302 78.3958043575 -0.0000000000 68.5883305518 103.9334784967 -0.0000000000 -6.9349316012 0.7071067787 -0.0000000000 0.7071067837 -0.0000000000 1.0000000000 0.0000000000 -0.7071067837 -0.0000000000 0.7071067787 -0.0624329921 0.0000000000 -3.5771469478 0.0000000000 0.0000000000 0.7853981669 -0.0000000000 -0.0000000000 0.0000007280 -0.0000000000 0.0000000000 0.0000007280 0.0000000000 0.0000000000 0.0001127473 0.0000000000 9.8070000000 -6.9345962276 -0.0000000000 -6.9345961786 101469.0000000000 1.9386301712 0.0000000000 0.0000000000 0.0000000000 0.0000000000 0.0000000000 0.0000000000 0.0000000000 0.0000000000 0.0000000000 0.0000000000 0.0000000000 0.0000000000 0.0000000000 0.0000000000 0.0000000000 0.0000000000 0.0000000000 0.0000000000 0.0000000000 0.0000000000 0.0000000000 0.0000000000 0.0624329921 3.5771469478 0.0000000000 -1.0000000000 0.0000000000 -0.0000000000 0.0000000000 0.0000000000 -0.0000417140 0.0000000000 -0.0000000000 -0.0000000000 0.0000000000 0.3430000000 -0.0168000000 0.0058000000 0.0000000000 -0.0372001432 0.1349619116 0.8694810595 0.0435087310 0.1349619116 -0.0012961912 -0.1589619116 0.0855771469 -1.2476120708 -0.2387076498 -23.1551000000 -1.0337333811 0.2167437980 91.6616440000 10164.1600000000 59.7869560000 0.3078000000 1.5351240000 10162.3600000000 0.2829039313 -0.0000000000 -0.8694810595 0.0000000000 1.2508569112 0.0000000000 14.5350405995 -15.5699594593 7.7327479285 -59.2285598764 -1326.6895042034 -9.1078466368 4.9032093429 1.0712016491 FLYING 1
0.0170000000 0.0160255522 0.0000000000 0.0146084240 0.0216882338 1.4143452537 -0.0000000000 1.2476228468 1.8822956947 -0.0000000000 -0.1178905526 1.8859837820 0.0055421210 83.3131591267 -0.0000000000 73.5056251595 110.8876257562 -0.0000000000 -6.9349742536 0.7071067781 -0.0000000000 0.7071067842 -0.0000000000 1.0000000000 0.0000000000 -0.7071067842 -0.0000000000 0.7071067781 -0.0625495629 0.0000000000 -3.5838259637 0.0000000000 0.0000000000 0.7853981677 -0.0000000000 -0.0000000000 0.0000008478 -0.0000000000 0.0000000000 0.0000008477 0.0000000000 0.0000000000 0.0001269379 0.0000000000 9.8070000000 -6.9345962330 -0.0000000000 -6.9345961732 101469.0000000000 2.1804010484 0.0000000000 0.0000000000 0.0000000000 0.0000000000 0.0000000000 0.0000000000 0.0000000000 0.0000000000 0.0000000000 0.0000000000 0.0000000000 0.0000000000 0.0000000000 0.0000000000 0.0000000000 0.0000000000 0.0000000000 0.0000000000 0.0000000000 0.0000000000 0.0000000000 0.0000000000 0.0625495629 3.5838259637 0.0000000000 -1.0000000000 0.0000000000 -0.0000000000 0.0000000000 0.0000000000 -0.0000485731 0.0000000000 -0.0000000000 -0.0000000000 0.0000000000 0.3430000000 -0.0168000000 0.0058000000 0.0000000000 -0.0374339087 0.1349730433 0.8712109246 0.0437692126 0.1349730433 -0.0012973043 -0.1589730433 0.0855838260 -1.2486606763 -0.2403128399 -23.1551000000 -1.0338113029 0.2182799716 91.6432280000 10799.4200000000 59.7858720000 0.3078000000 1.5350880000 10797.6200000000 0.2827917238 -0.0000000000 -0.8712109246 0.0000000000 1.2521137977 0.0000000000 14.5378150253 -15.5730426554 7.7333857276 -59.2330244696 -1326.6895042034 -9.1084844359 4.9035920223 1.0712092999 FLYING 1
0.0180000000 0.0174823739 0.0000000000 0.0158936194 0.0236309270 1.5001179144 -0.0000000000 1.3235879412 1.9966615579 -0.0000000000 -0.1248255516 2.0005595042 0.0058788114 88.2324920516 -0.0000000000 78.4248923935 117.8445666397 -0.0000000000 -6.9350208418 0.7071067775 -0.0000000000 0.7071067849 -0.0000000000 1.0000000000 0.0000000000 -0.7071067849 -0.0000000000 0.7071067775 -0.0624358777 0.0000000000 -3.5773122809 0.0000000000 0.0000000000 0.7853981686 -0.0000000000 -0.0000000000 0.0000009825 -0.0000000000 0.0000000000 0.0000009824 0.0000000000 0.0000000000 0.0001427378 0.0000000000 9.8070000000 -6.9345962394 -0.0000000000 -6.9345961668 101469.0000000000 2.4533720961 0.0000000000 0.0000000000 0.0000000000 0.0000000000 0.0000000000 0.0000000000 0.0000000000 0.0000000000 0.0000000000 0.0000000000 0.0000000000 0.0000000000 0.0000000000 0.0000000000 0.0000000000 0.0000000000 0.0000000000 0.0000000000 0.0000000000 0.0000000000 0.0000000000 0.0000000000 0.0624358777 3.5773122809 0.0000000000 -1.0000000000 0.0000000000 -0.0000000000 0.0000000000 0.0000000000 -0.0000562907 0.0000000000 -0.0000000000 -0.0000000000 0.0000000000 0.3430000000 -0.0168000000 0.0058000000 0.0000000000 -0.0372059298 0.1349621871 0.8695238808 0.0435151790 0.1349621871 -0.0012962187 -0.1589621871 0.0855773123 -1.2476380281 -0.2387473848 -23.1551000000 -1.0337353099 0.2167818246 91.6248120000 11434.6800000000 59.7847880000 0.3078000000 1.5350520000 11432.8800000000 0.2829011537 -0.0000000000 -0.8695238808 0.0000000000 1.2512855699 0.0000000000 14.5351092779 -15.5768177530 7.7327637167 -59.2286703934 -1326.6895042034 -9.1078624250 4.9032188158 1.0716684309 FLYING 1
0.0190000000 0.0190274282 0.0000000000 0.0172572399 0.0256916680 1.5908108976 -0.0000000000 1.4044732894 2.1179857594 -0.0000000000 -0.1317605997 2.1220801207 0.0062359098 93.1538043544 -0.0000000000 83.3461331554 124.8043026486 -0.0000000000 -6.9350715971 0.7071067767 -0.0000000000 0.7071067856 -0.0000000000 1.0000000000 0.0000000000 -0.7071067856 -0.0000000000 0.7071067767 -0.0621302684 0.0000000000 -3.5598021621 0.0000000000 0.0000000000 0.7853981697 -0.0000000000 -0.0000000000 0.0000011338 -0.0000000000 0.0000000000 0.0000011338 0.0000000000 0.0000000000 0.0001602784 0.0000000000 9.8070000000 -6.9345962467 -0.0000000000 -6.9345961595 101469.0000000000 2.7604763357 0.0000000000 0.0000000000 0.0000000000 0.0000000000 0.0000000000 0.0000000000 0.0000000000 0.0000000000 0.0000000000 0.0000000000 0.0000000000 0.0000000000 0.0000000000 0.0000000000 0.0000000000 0.0000000000 0.0000000000 0.0000000000 0.0000000000 0.0000000000 0.0000000000 0.0000000000 0.0621302684 3.5598021621 0.0000000000 -1.0000000000 0.0000000000 -0.0000000000 0.0000000000 0.0000000000 -0.0000649629 0.0000000000 -0.0000000000 -0.0000000000 0.0000000000 0.3430000000 -0.0168000000 0.0058000000 0.0000000000 -0.0365930757 0.1349330036 0.8649887600 0.0428322843 0.1349330036 -0.0012933004 -0.1589330036 0.0855598022 -1.2448889394 -0.2345391196 -23.1551000000 -1.0335310252 0.2127544973 91.6063960000 12069.9400000000 59.7837040000 0.3078000000 1.5350160000 12068.1400000000 0.2831953237 -0.0000000000 -0.8649887600 0.0000000000 1.2487171586 0.0000000000 14.5278356726 -15.5811661175 7.7310916235 -59.2169657412 -1326.6895042034 -9.1061903318 4.9022155599 1.0725042924 FLYING 1
0.0200000000 0.0206656364 0.0000000000 0.0187042067 0.0278774034 1.6864261833 -0.0000000000 1.4902808656 2.2462710951 -0.0000000000 -0.1386957011 2.2505487788 0.0066134257 98.0770972474 -0.0000000000 88.2693483407 131.7668352733 -0.0000000000 -6.9351267490 0.7071067759 -0.0000000000 0.7071067865 -0.0000000000 1.0000000000 0.0000000000 -0.7071067865 -0.0000000000 0.7071067759 -0.0616665793 0.0000000000 -3.5332347298 0.0000000000 0.0000000000 0.7853981709 -0.0000000000 -0.0000000000 0.0000013036 -0.0000000000 0.0000000000 0.0000013036 0.0000000000 0.0000000000 0.0001796973 0.0000000000 9.8070000000 -6.9345962551 -0.0000000000 -6.9345961511 101469.0000000000 3.1048264910 0.0000000000 0.0000000000 0.0000000000 0.0000000000 0.0000000000 0.0000000000 0.0000000000 0.0000000000 0.0000000000 0.0000000000 0.0000000000 0.0000000000 0.0000000000 0.0000000000 0.0000000000 0.0000000000 0.0000000000 0.0000000000 0.0000000000 0.0000000000 0.0000000000 0.0000000000 0.0616665793 3.5332347298 0.0000000000 -1.0000000000 0.0000000000 -0.0000000000 0.0000000000 0.0000000000 -0.0000746932 0.0000000000 -0.0000000000 -0.0000000000 0.0000000000 0.3430000000 -0.0168000000 0.0058000000 0.0000000000 -0.0356632155 0.1348887245 0.8581077950 0.0417961545 0.1348887245 -0.0012888725 -0.1588887245 0.0855332347 -1.2407178526 -0.2281540800 -23.1551000000 -1.0332210718 0.2066439878 91.5879800000 12705.2000000000 59.7826200000 0.3078000000 1.5349800000 12703.4000000000 0.2836416565 -0.0000000000 -0.8581077950 0.0000000000 1.2447133461 0.0000000000 14.5167997099 -15.5859833863 7.7285546206 -59.1992067208 -1326.6895042034 -9.1036533289 4.9006933581 1.0736514726 FLYING 1
0.0210000000 0.0224019220 0.0000000000 0.0202394431 0.0301950829 1.7869657527 -0.0000000000 1.5810126446 2.3815203623 -0.0000000000 -0.1456308606 2.3859687817 0.0070113687 103.0023719336 -0.0000000000 93.1945388384 138.7321659930 -0.0000000000 -6.9351865253 0.7071067749 -0.0000000000 0.7071067875 -0.0000000000 1.0000000000 0.0000000000 -0.7071067875 -0.0000000000 0.7071067749 -0.0610743262 0.0000000000 -3.4993011266 0.0000000000 0.0000000000 0.7853981723 -0.0000000000 -0.0000000000 0.0000014939 -0.0000000000 0.0000000000 0.0000014939 0.0000000000 0.0000000000 0.0002011376 0.0000000000 9.8070000000 -6.9345962648 -0.0000000000 -6.9345961414 101469.0000000000 3.4897152278 0.0000000000 0.0000000000 0.0000000000 0.0000000000 0.0000000000 0.0000000000 0.0000000000 0.0000000000 0.0000000000 0.0000000000 0.0000000000 0.0000000000 0.0000000000 0.0000000000 0.0000000000 0.0000000000 0.0000000000 0.0000000000 0.0000000000 0.0000000000 0.0000000000 0.0000000000 0.0610743262 3.4993011266 0.0000000000 -1.0000000000 0.0000000000 -0.0000000000 0.0000000000 0.0000000000 -0.0000855933 0.0000000000 -0.0000000000 -0.0000000000 0.0000000000 0.3430000000 -0.0168000000 0.0058000000 0.0000000000 -0.0344755394 0.1348321685 0.8493189918 0.0404727439 0.1348321685 -0.0012832169 -0.1588321685 0.0854993011 -1.2353902769 -0.2199987041 -23.1551000000 -1.0328251798 0.1988392591 91.5695640000 13340.4600000000 59.7815360000 0.3078000000 1.5349440000 13338.6600000000 0.2842117411 -0.0000000000 -0.8493189918 0.0000000000 1.2395401380 0.0000000000 14.5027038812 -15.5911788656 7.7253142002 -59.1765237780 -1326.6895042034 -9.1004129085 4.8987491059 1.0750532448 FLYING 1
0.0220000000 0.0242412100 0.0000000000 0.0218678741 0.0326516594 1.8924315882 -0.0000000000 1.6766706020 2.5237363598 -0.0000000000 -0.1525660829 2.5283435356 0.0074297489 107.9296296063 -0.0000000000 98.1217055318 145.7002962759 -0.0000000000 -6.9352511523 0.7071067738 -0.0000000000 0.7071067886 -0.0000000000 1.0000000000 0.0000000000 -0.7071067886 -0.0000000000 0.7071067738 -0.0603789872 0.0000000000 -3.4594611404 0.0000000000 0.0000000000 0.7853981739 -0.0000000000 -0.0000000000 0.0000017066 -0.0000000000 0.0000000000 0.0000017066 0.0000000000 0.0000000000 0.0002247485 0.0000000000 9.8070000000 -6.9345962759 -0.0000000000 -6.9345961303 101469.0000000000 3.9186153938 0.0000000000 0.0000000000 0.0000000000 0.0000000000 0.0000000000 0.0000000000 0.0000000000 0.0000000000 0.0000000000 0.0000000000 0.0000000000 0.0000000000 0.0000000000 0.0000000000 0.0000000000 0.0000000000 0.0000000000 0.0000000000 0.0000000000 0.0000000000 0.0000000000 0.0000000000 0.0603789872 3.4594611404 0.0000000000 -1.0000000000 0.0000000000 -0.0000000000 0.0000000000 0.0000000000 -0.0000977833 0.0000000000 -0.0000000000 -0.0000000000 0.0000000000 0.3430000000 -0.0168000000 0.0058000000 0.0000000000 -0.0330811399 0.1347657686 0.8390004354 0.0389189845 0.1347657686 -0.0012765769 -0.1587657686 0.0854594611 -1.2291353990 -0.2104238274 -23.1551000000 -1.0323603800 0.1896760623 91.5511480000 13975.7200000000 59.7804520000 0.3078000000 1.5349080000 13973.9200000000 0.2848810528 -0.0000000000 -0.8390004354 0.0000000000 1.2334273202 0.0000000000 14.4861545739 -15.5966745454 7.7215097617 -59.1498927089 -1326.6895042034 -9.0966084701 4.8964664428 1.0766607843 FLYING 1
0.0230000000 0.0261884279 0.0000000000 0.0235944270 0.0352540895 2.0028256733 -0.0000000000 1.7772567146 2.6729218880 -0.0000000000 -0.1595013732 2.6776765082 0.0078685763 112.8588714491 -0.0000000000 103.0508492980 152.6712275789 -0.0000000000 -6.9353208545 0.7071067725 -0.0000000000 0.7071067899 -0.0000000000 1.0000000000 0.0000000000 -0.7071067899 -0.0000000000 0.7071067725 -0.0596023636 0.0000000000 -3.4149638856 0.0000000000 0.0000000000 0.7853981757 -0.0000000000 -0.0000000000 0.0000019442 -0.0000000000 0.0000000000 0.0000019441 0.0000000000 0.0000000000 0.0002506849 0.0000000000 9.8070000000 -6.9345962886 -0.0000000000 -6.9345961176 101469.0000000000 4.3951802588 0.0000000000 0.0000000000 0.0000000000 0.0000000000 0.0000000000 0.0000000000 0.0000000000 0.0000000000 0.0000000000 0.0000000000 0.0000000000 0.0000000000 0.0000000000 0.0000000000 0.0000000000 0.0000000000 0.0000000000 0.0000000000 0.0000000000 0.0000000000 0.0000000000 0.0000000000 0.0596023636 3.4149638856 0.0000000000 -1.0000000000 0.0000000000 -0.0000000000 0.0000000000 0.0000000000 -0.0001113920 0.0000000000 -0.0000000000 -0.0000000000 0.0000000000 0.3430000000 -0.0168000000 0.0058000000 0.0000000000 -0.0315237360 0.1346916065 0.8274756464 0.0371835915 0.1346916065 -0.0012691606 -0.1586916065 0.0854149639 -1.2221493300 -0.1997296538 -23.1551000000 -1.0318412453 0.1794416937 91.5327320000 14610.9800000000 59.7793680000 0.3078000000 1.5348720000 14609.1800000000 0.2856286067 -0.0000000000 -0.8274756464 0.0000000000 1.2265716636 0.0000000000 14.4676706634 -15.6024039130 7.7172605869 -59.1201484850 -1326.6895042034 -9.0923592952 4.8939169379 1.0784323390 FLYING 1
0.0240000000 0.0282485048 0.0000000000 0.0254240309 0.0380093331 2.1181499929 -0.0000000000 1.8827729599 2.8290797485 -0.0000000000 -0.1664367369 2.8339711976 0.0083278613 117.7900986358 -0.0000000000 107.9819710082 159.6449613480 -0.0000000000 -6.9353958548 0.7071067710 -0.0000000000 0.7071067914 -0.0000000000 1.0000000000 0.0000000000 -0.7071067914 -0.0000000000 0.7071067710 -0.0587629692 0.0000000000 -3.3668701268 0.0000000000 0.0000000000 0.7853981778 -0.0000000000 -0.0000000000 0.0000022088 -0.0000000000 0.0000000000 0.0000022088 0.0000000000 0.0000000000 0.0002791074 0.0000000000 9.8070000000 -6.9345963029 -0.0000000000 -6.9345961033 101469.0000000000 4.9232437552 0.0000000000 0.0000000000 0.0000000000 0.0000000000 0.0000000000 0.0000000000 0.0000000000 0.0000000000 0.0000000000 0.0000000000 0.0000000000 0.0000000000 0.0000000000 0.0000000000 0.0000000000 0.0000000000 0.0000000000 0.0000000000 0.0000000000 0.0000000000 0.0000000000 0.0000000000 0.0587629692 3.3668701268 0.0000000000 -1.0000000000 0.0000000000 -0.0000000000 0.0000000000 0.0000000000 -0.0001265571 0.0000000000 -0.0000000000 -0.0000000000 0.0000000000 0.3430000000 -0.0168000000 0.0058000000 0.0000000000 -0.0298404544 0.1346114502 0.8150193628 0.0353079349 0.1346114502 -0.0012611450 -0.1586114502 0.0853668701 -1.2145986099 -0.1881711205 -23.1551000000 -1.0312801515 0.1683801292 91.5143160000 15246.2400000000 59.7782840000 0.3078000000 1.5348360000 15244.4400000000 0.2864365819 -0.0000000000 -0.8150193628 0.0000000000 1.2191403982 0.0000000000 14.4476927852 -15.6083106948 7.7126679712 -59.0880001754 -1326.6895042034 -9.0877666796 4.8911613685 1.0803324051 FLYING 1
0.0250000000 0.0304263719 0.0000000000 0.0273616169 0.0409243537 2.2384065328 -0.0000000000 1.9932213163 2.9922127446 -0.0000000000 -0.1733721793 2.9972311090 0.0088076142 122.7233123304 -0.0000000000 112.9150715275 166.6214990176 -0.0000000000 -6.9354763743 0.7071067693 -0.0000000000 0.7071067930 -0.0000000000 1.0000000000 0.0000000000 -0.7071067930 -0.0000000000 0.7071067693 -0.0578764203 0.0000000000 -3.3160746167 0.0000000000 0.0000000000 0.7853981801 -0.0000000000 -0.0000000000 0.0000025033 -0.0000000000 0.0000000000 0.0000025032 0.0000000000 0.0000000000 0.0003101829 0.0000000000 9.8070000000 -6.9345963193 -0.0000000000 -6.9345960869 101469.0000000000 5.5068207188 0.0000000000 0.0000000000 0.0000000000 0.0000000000 0.0000000000 0.0000000000 0.0000000000 0.0000000000 0.0000000000 0.0000000000 0.0000000000 0.0000000000 0.0000000000 0.0000000000 0.0000000000 0.0000000000 0.0000000000 0.0000000000 0.0000000000 0.0000000000 0.0000000000 0.0000000000 0.0578764203 3.3160746167 0.0000000000 -1.0000000000 0.0000000000 -0.0000000000 0.0000000000 0.0000000000 -0.0001434260 0.0000000000 -0.0000000000 -0.0000000000 0.0000000000 0.3430000000 -0.0168000000 0.0058000000 0.0000000000 -0.0280626116 0.1345267910 0.8018633257 0.0333269101 0.1345267910 -0.0012526791 -0.1585267910 0.0853160746 -1.2066237148 -0.1759632662 -23.1551000000 -1.0306875372 0.1566971618 91.4959000000 15881.5000000000 59.7772000000 0.3078000000 1.5348000000 15879.7000000000 0.2872899464 -0.0000000000 -0.8018633257 0.0000000000 1.2112746957 0.0000000000 14.4265926147 -15.6143476095 7.7078173573 -59.0540458780 -1326.6895042034 -9.0829160656 4.8882510002 1.0823309444 FLYING 1
0.0260000000 0.0327269626 0.0000000000 0.0294121182 0.0440061182 2.3635972801 -0.0000000000 2.1086037629 3.1623236808 -0.0000000000 -0.1803077066 3.1674597378 0.0093078452 127.6585136866 -0.0000000000 117.8501517154 173.6008420112 -0.0000000000 -6.9355626327 0.7071067675 -0.0000000000 0.7071067949 -0.0000000000 1.0000000000 0.0000000000 -0.7071067949 -0.0000000000 0.7071067675 -0.0569558080 0.0000000000 -3.2633274188 0.0000000000 0.0000000000 0.7853981828 -0.0000000000 -0.0000000000 0.0000028301 -0.0000000000 0.0000000000 0.0000028301 0.0000000000 0.0000000000 0.0003440836 0.0000000000 9.8070000000 -6.9345963377 -0.0000000000 -6.9345960685 101469.0000000000 6.1501071298 0.0000000000 0.0000000000 0.0000000000 0.0000000000 0.0000000000 0.0000000000 0.0000000000 0.0000000000 0.0000000000 0.0000000000 0.0000000000 0.0000000000 0.0000000000 0.0000000000 0.0000000000 0.0000000000 0.0000000000 0.0000000000 0.0000000000 0.0000000000 0.0000000000 0.0000000000 0.0569558080 3.2633274188 0.0000000000 -1.0000000000 0.0000000000 -0.0000000000 0.0000000000 0.0000000000 -0.0001621554 0.0000000000 -0.0000000000 -0.0000000000 0.0000000000 0.3430000000 -0.0168000000 0.0058000000 0.0000000000 -0.0262164597 0.1344388790 0.7882018015 0.0312697693 0.1344388790 -0.0012438879 -0.1584388790 0.0852633274 -1.1983424048 -0.1632863563 -23.1551000000 -1.0300721532 0.1445653063 91.4774840000 16516.7600000000 59.7761160000 0.3078000000 1.5347640000 16514.9600000000 0.2881760994 -0.0000000000 -0.7882018015 0.0000000000 1.2030930013 0.0000000000 14.4046817240 -15.6204751875 7.7027803710 -59.0187869734 -1326.6895042034 -9.0778790793 4.8852288083 1.0844026607 FLYING 1
0.0270000000 0.0351552119 0.0000000000 0.0315804698 0.0472615972 2.4937242231 -0.0000000000 2.2289222799 3.3394153632 -0.0000000000 -0.1872433246 3.3446605579 0.0098285647 132.5957038482 -0.0000000000 122.7872124254 180.5829917408 -0.0000000000 -6.9356548476 0.7071067653 -0.0000000000 0.7071067970 -0.0000000000 1.0000000000 0.0000000000 -0.7071067970 -0.0000000000 0.7071067653 -0.0560120422 0.0000000000 -3.2092536210 0.0000000000 0.0000000000 0.7853981858 -0.0000000000 -0.0000000000 0.0000031924 -0.0000000000 0.0000000000 0.0000031924 0.0000000000 0.0000000000 0.0003809880 0.0000000000 9.8070000000 -6.9345963586 -0.0000000000 -6.9345960476 101469.0000000000 6.8574803538 0.0000000000 0.0000000000 0.0000000000 0.0000000000 0.0000000000 0.0000000000 0.0000000000 0.0000000000 0.0000000000 0.0000000000 0.0000000000 0.0000000000 0.0000000000 0.0000000000 0.0000000000 0.0000000000 0.0000000000 0.0000000000 0.0000000000 0.0000000000 0.0000000000 0.0000000000 0.0560120422 3.2092536210 0.0000000000 -1.0000000000 0.0000000000 -0.0000000000 0.0000000000 0.0000000000 -0.0001829124 0.0000000000 -0.0000000000 -0.0000000000 0.0000000000 0.3430000000 -0.0168000000 0.0058000000 0.0000000000 -0.0243238767 0.1343487560 0.7741966878 0.0291608912 0.1343487560 -0.0012348756 -0.1583487560 0.0852092536 -1.1898528185 -0.1502906202 -23.1551000000 -1.0294412922 0.1321283328 91.4590680000 17152.0200000000 59.7750320000 0.3078000000 1.5347280000 17150.2200000000 0.2890845392 -0.0000000000 -0.7741966878 0.0000000000 1.1946941161 0.0000000000 14.3822197712 -15.6266606851 7.6976167036 -58.9826413021 -1326.6895042034 -9.0727154120 4.8821306079 1.0865263453 FLYING 1
0.0280000000 0.0377160571 0.0000000000 0.0338716088 0.0506977645 2.6287893511 -0.0000000000 2.3541788482 3.5234905991 -0.0000000000 -0.1941790397 3.5288370146 0.0103697826 137.5348839487 -0.0000000000 127.7262545056 187.5679496073 -0.0000000000 -6.9357532351 0.7071067629 -0.0000000000 0.7071067994 -0.0000000000 1.0000000000 0.0000000000 -0.7071067994 -0.0000000000 0.7071067629 -0.0550541624 0.0000000000 -3.1543711480 0.0000000000 0.0000000000 0.7853981892 -0.0000000000 -0.0000000000 0.0000035932 -0.0000000000 0.0000000000 0.0000035932 0.0000000000 0.0000000000 0.0004210802 0.0000000000 9.8070000000 -6.9345963821 -0.0000000000 -6.9345960241 101469.0000000000 7.6334993840 0.0000000000 0.0000000000 0.0000000000 0.0000000000 0.0000000000 0.0000000000 0.0000000000 0.0000000000 0.0000000000 0.0000000000 0.0000000000 0.0000000000 0.0000000000 0.0000000000 0.0000000000 0.0000000000 0.0000000000 0.0000000000 0.0000000000 0.0000000000 0.0000000000 0.0000000000 0.0550541624 3.1543711480 0.0000000000 -1.0000000000 0.0000000000 -0.0000000000 0.0000000000 0.0000000000 -0.0002058743 0.0000000000 -0.0000000000 -0.0000000000 0.0000000000 0.3430000000 -0.0168000000 0.0058000000 0.0000000000 -0.0224029902 0.1342572852 0.7599821273 0.0270204748 0.1342572852 -0.0012257285 -0.1582572852 0.0851543711 -1.1812362702 -0.1371005326 -23.1551000000 -1.0288009967 0.1195053640 91.4406520000 17787.2800000000 59.7739480000 0.3078000000 1.5346920000 17785.4800000000 0.2900065647 -0.0000000000 -0.7599821273 0.0000000000 1.1861599865 0.0000000000 14.3594218991 -15.6328771085 7.6923758135 -58.9459550713 -1326.6895042034 -9.0674745218 4.8789860739 1.0886842951 FLYING 1
0.0290000000 0.0404144373 0.0000000000 0.0362904742 0.0543215976 2.7687946547 -0.0000000000 2.4843754496 3.7145521975 -0.0000000000 -0.2011148586 3.7199925192 0.0109315090 142.4760551111 -0.0000000000 132.6672787982 194.5557170000 -0.0000000000 -6.9358580096 0.7071067602 -0.0000000000 0.7071068021 -0.0000000000 1.0000000000 0.0000000000 -0.7071068021 -0.0000000000 0.7071067602 -0.0540896138 0.0000000000 -3.0991065847 0.0000000000 0.0000000000 0.7853981930 -0.0000000000 -0.0000000000 0.0000040357 -0.0000000000 0.0000000000 0.0000040357 0.0000000000 0.0000000000 0.0004645503 0.0000000000 9.8070000000 -6.9345964085 -0.0000000000 -6.9345959977 101469.0000000000 8.4829050820 0.0000000000 0.0000000000 0.0000000000 0.0000000000 0.0000000000 0.0000000000 0.0000000000 0.0000000000 0.0000000000 0.0000000000 0.0000000000 0.0000000000 0.0000000000 0.0000000000 0.0000000000 0.0000000000 0.0000000000 0.0000000000 0.0000000000 0.0000000000 0.0000000000 0.0000000000 0.0540896138 3.0991065847 0.0000000000 -1.0000000000 0.0000000000 -0.0000000000 0.0000000000 0.0000000000 -0.0002312292 0.0000000000 -0.0000000000 -0.0000000000 0.0000000000 0.3430000000 -0.0168000000 0.0058000000 0.0000000000 -0.0204687305 0.1341651776 0.7456686054 0.0248651568 0.1341651776 -0.0012165178 -0.1581651776 0.0850991066 -1.1725597338 -0.1238186159 -23.1551000000 -1.0281562435 0.1067945145 91.4222360000 18422.5400000000 59.7728640000 0.3078000000 1.5346560000 18420.7400000000 0.2909350094 -0.0000000000 -0.7456686054 0.0000000000 1.1775581837 0.0000000000 14.3364653090 -15.6391023499 7.6870984365 -58.9090134319 -1326.6895042034 -9.0621971448 4.8758196476 1.0908617998 FLYING 1
0.0300000000 0.0432552938 0.0000000000 0.0388420070 0.0581400770 2.9137421254 -0.0000000000 2.6195140668 3.9126029685 -0.0000000000 -0.2080507881 3.9181304471 0.0115137539 147.4192184479 -0.0000000000 137.6102861401 201.5462952973 -0.0000000000 -6.9359693836 0.7071067572 -0.0000000000 0.7071068052 -0.0000000000 1.0000000000 0.0000000000 -0.7071068052 -0.0000000000 0.7071067572 -0.0531244898 0.0000000000 -3.0438090526 0.0000000000 0.0000000000 0.7853981973 -0.0000000000 -0.0000000000 0.0000045235 -0.0000000000 0.0000000000 0.0000045235 0.0000000000 0.0000000000 0.0005115942 0.0000000000 9.8070000000 -6.9345964382 -0.0000000000 -6.9345959680 101469.0000000000 9.4106204210 0.0000000000 0.0000000000 0.0000000000 0.0000000000 0.0000000000 0.0000000000 0.0000000000 0.0000000000 0.0000000000 0.0000000000 0.0000000000 0.0000000000 0.0000000000 0.0000000000 0.0000000000 0.0000000000 0.0000000000 0.0000000000 0.0000000000 0.0000000000 0.0000000000 0.0000000000 0.0531244898 3.0438090526 0.0000000000 -1.0000000000 0.0000000000 -0.0000000000 0.0000000000 0.0000000000 -0.0002591761 0.0000000000 -0.0000000000 -0.0000000000 0.0000000000 0.3430000000 -0.0168000000 0.0058000000 0.0000000000 -0.0185333168 0.1340730151 0.7313465446 0.0227085531 0.1340730151 -0.0012073015 -0.1580730151 0.0850438091 -1.1638780213 -0.1105287756 -23.1551000000 -1.0275111056 0.0940760821 91.4038200000 19057.8000000000 59.7717800000 0.3078000000 1.5346200000 19056.0000000000 0.2918640079 -0.0000000000 -0.7313465446 0.0000000000 1.1689440794 0.0000000000 14.3134950237 -15.6453184326 7.6818179111 -58.8720497545 -1326.6895042034 -9.0569166194 4.8726513324 1.0930466952 FLYING 1
0.0310000000 0.0462435696 0.0000000000 0.0415311503 0.0621601870 3.0636337560 -0.0000000000 2.7595966831 4.1176457236 -0.0000000000 -0.2149868353 4.1232541369 0.0121165270 152.3643753751 -0.0000000000 142.5552770486 208.5396858656 -0.0000000000 -6.9360880120 0.7071067538 -0.0000000000 0.7071068085 -0.0000000000 1.0000000000 0.0000000000 -0.7071068085 -0.0000000000 0.7071067538 -0.0521637419 0.0000000000 -2.9887622560 0.0000000000 0.0000000000 0.7853982021 -0.0000000000 -0.0000000000 0.0000050602 -0.0000000000 0.0000000000 0.0000050599 0.0000000000 0.0000000000 0.0005611690 0.0000000000 9.8070000000 -6.9345964714 -0.0000000000 -6.9345959348 101469.0000000000 10.4217507271 0.0000000000 0.0000000000 0.0000000000 0.0000000000 0.0000000000 0.0000000000 0.0000000000 0.0000000000 0.0000000000 0.0000000000 0.0000000000 0.0000000000 0.0000000000 0.0000000000 0.0000000000 0.0000000000 0.0000000000 0.0000000000 0.0000000000 0.0000000000 0.0000000000 0.0000000000 0.0521637419 2.9887622560 0.0000000000 -1.0000000000 0.0000000000 -0.0000000000 0.0000000000 0.0000000000 -0.0002899257 0.0000000000 -0.0000000000 -0.0000000000 0.0000000000 0.3430000000 -0.0168000000 0.0058000000 0.0000000000 -0.0169363195 0.1340112377 0.7173029414 0.0209213358 0.1340112377 -0.0011955049 -0.1579925082 0.0849962541 -1.1526659767 -0.0996254085 -23.1551000000 -1.0270936479 0.0836853432 91.3854040000 19693.0600000000 59.7706960000 0.3078000000 1.5345840000 19691.2600000000 0.2927887941 -0.0000000000 -0.7173029414 0.0000000000 1.1577946029 0.0000000000 14.2675030381 -15.6338853364 7.6782783301 -58.8481311874 -1326.6895042034 -9.0523039129 4.8699266335 1.0957688458 FLYING 1
0.0320000000 0.0493842100 0.0000000000 0.0443628491 0.0663889149 3.2184715415 -0.0000000000 2.9046252819 4.3296832759 -0.0000000000 -0.2219230091 4.3353668903 0.0127398381 157.3115280754 -0.0000000000 147.5022512582 215.5358900605 -0.0000000000 -6.9362156474 0.7071067501 -0.0000000000 0.7071068123 -0.0000000000 1.0000000000 0.0000000000 -0.7071068123 -0.0000000000 0.7071067501 -0.0512113616 0.0000000000 -2.9341948822 0.0000000000 0.0000000000 0.7853982074 -0.0000000000 -0.0000000000 0.0000056449 -0.0000000000 0.0000000000 0.0000056449 0.0000000000 0.0000000000 0.0006091587 0.0000000000 9.8070000000 -6.9345965085 -0.0000000000 -6.9345958977 101469.0000000000 11.5215839232 0.0000000000 0.0000000000 0.0000000000 0.0000000000 0.0000000000 0.0000000000 0.0000000000 0.0000000000 0.0000000000 0.0000000000 0.0000000000 0.0000000000 0.0000000000 0.0000000000 0.0000000000 0.0000000000 0.0000000000 0.0000000000 0.0000000000 0.0000000000 0.0000000000 0.0000000000 0.0512113616 2.9341948822 0.0000000000 -1.0000000000 0.0000000000 -0.0000000000 0.0000000000 0.0000000000 -0.0003234264 0.0000000000 -0.0000000000 -0.0000000000 0.0000000000 0.3430000000 -0.0168000000 0.0058000000 0.0000000000 -0.0166271043 0.1340658051 0.7042067717 0.0205393642 0.1340658051 -0.0011736780 -0.1579561299 0.0849780650 -1.1316211596 -0.0978064961 -23.1551000000 -1.0275483760 0.0821574567 91.3669880000 20328.3200000000 59.7696120000 0.3078000000 1.5345480000 20326.5200000000 0.2937055260 -0.0000000000 -0.7042067717 0.0000000000 1.1368126685 0.0000000000 14.1325433086 -15.5544258789 7.6814048103 -58.8741851893 -1326.6895042034 -9.0502195927 4.8688844734 1.1006105228 FLYING 1
0.0330000000 0.0526821621 0.0000000000 0.0473420502 0.0708332514 3.3782574774 -0.0000000000 3.0546018474 4.5487184396 -0.0000000000 -0.2288593182 4.5544719738 0.0133836967 162.2606765551 -0.0000000000 152.4512106638 222.5349092257 -0.0000000000 -6.9363509771 0.7071067458 -0.0000000000 0.7071068165 -0.0000000000 1.0000000000 0.0000000000 -0.7071068165 -0.0000000000 0.7071067458 -0.0502705343 0.0000000000 -2.8802894466 0.0000000000 0.0000000000 0.7853982134 -0.0000000000 -0.0000000000 0.0000062792 -0.0000000000 0.0000000000 0.0000062792 0.0000000000 0.0000000000 0.0006600388 0.0000000000 9.8070000000 -6.9345965498 -0.0000000000 -6.9345958564 101469.0000000000 12.7155907704 0.0000000000 0.0000000000 0.0000000000 0.0000000000 0.0000000000 0.0000000000 0.0000000000 0.0000000000 0.0000000000 0.0000000000 0.0000000000 0.0000000000 0.0000000000 0.0000000000 0.0000000000 0.0000000000 0.0000000000 0.0000000000 0.0000000000 0.0000000000 0.0000000000 0.0000000000 0.0502705343 2.8802894466 0.0000000000 -1.0000000000 0.0000000000 -0.0000000000 0.0000000000 0.0000000000 -0.0003597722 0.0000000000 -0.0000000000 -0.0000000000 0.0000000000 0.3430000000 -0.0168000000 0.0058000000 0.0000000000 -0.0163216402 0.1341197106 0.6912694672 0.0201620261 0.1341197106 -0.0011521158 -0.1579201930 0.0849600965 -1.1108316299 -0.0960096482 -23.1551000000 -1.0279975879 0.0806481045 91.3485720000 20963.5800000000 59.7685280000 0.3078000000 1.5345120000 20961.7800000000 0.2946111373 -0.0000000000 -0.6912694672 0.0000000000 1.1160808889 0.0000000000 13.9992207297 -15.4759078270 7.6844933642 -58.8999231389 -1326.6895042034 -9.0481605568 4.8678549555 1.1054835213 FLYING 1
0.0340000000 0.0561423750 0.0000000000 0.0504737027 0.0755001906 3.5429935602 -0.0000000000 3.2095283652 4.7747540302 -0.0000000000 -0.2357957710 4.7805726196 0.0140481123 167.2118219166 -0.0000000000 157.4021560477 229.5367446938 -0.0000000000 -6.9364942518 0.7071067412 -0.0000000000 0.7071068212 -0.0000000000 1.0000000000 0.0000000000 -0.7071068212 -0.0000000000 0.7071067412 -0.0493437718 0.0000000000 -2.8271898694 0.0000000000 0.0000000000 0.7853982200 -0.0000000000 -0.0000000000 0.0000069659 -0.0000000000 0.0000000000 0.0000069659 0.0000000000 0.0000000000 0.0007139032 0.0000000000 9.8070000000 -6.9345965957 -0.0000000000 -6.9345958105 101469.0000000000 14.0094251120 0.0000000000 0.0000000000 0.0000000000 0.0000000000 0.0000000000 0.0000000000 0.0000000000 0.0000000000 0.0000000000 0.0000000000 0.0000000000 0.0000000000 0.0000000000 0.0000000000 0.0000000000 0.0000000000 0.0000000000 0.0000000000 0.0000000000 0.0000000000 0.0000000000 0.0000000000 0.0493437718 2.8271898694 0.0000000000 -1.0000000000 0.0000000000 -0.0000000000 0.0000000000 0.0000000000 -0.0003991183 0.0000000000 -0.0000000000 -0.0000000000 0.0000000000 0.3430000000 -0.0168000000 0.0058000000 0.0000000000 -0.0160207426 0.1341728101 0.6785255687 0.0197903291 0.1341728101 -0.0011308759 -0.1578847932 0.0849423966 -1.0903528930 -0.0942396623 -23.1551000000 -1.0284400844 0.0791613163 91.3301560000 21598.8400000000 59.7674440000 0.3078000000 1.5344760000 21597.0400000000 0.2955032102 -0.0000000000 -0.6785255687 0.0000000000 1.0956551614 0.0000000000 13.8678912544 -15.3985509704 7.6875357459 -58.9252763194 -1326.6895042034 -9.0461323023 4.8668408282 1.1103743668 FLYING 1
0.0350000000 0.0597697999 0.0000000000 0.0537627576 0.0803967295 3.7126817873 -0.0000000000 3.3694068217 5.0077928649 -0.0000000000 -0.2427323761 5.0136720280 0.0147330944 172.1649652528 -0.0000000000 162.3550881857 236.5413977857 -0.0000000000 -6.9366457225 0.7071067360 -0.0000000000 0.7071068264 -0.0000000000 1.0000000000 0.0000000000 -0.7071068264 -0.0000000000 0.7071067360 -0.0484330246 0.0000000000 -2.7750078991 0.0000000000 0.0000000000 0.7853982273 -0.0000000000 -0.0000000000 0.0000077080 -0.0000000000 0.0000000000 0.0000077080 0.0000000000 0.0000000000 0.0007708460 0.0000000000 9.8070000000 -6.9345966465 -0.0000000000 -6.9345957597 101469.0000000000 15.4089241163 0.0000000000 0.0000000000 0.0000000000 0.0000000000 0.0000000000 0.0000000000 0.0000000000 0.0000000000 0.0000000000 0.0000000000 0.0000000000 0.0000000000 0.0000000000 0.0000000000 0.0000000000 0.0000000000 0.0000000000 0.0000000000 0.0000000000 0.0000000000 0.0000000000 0.0000000000 0.0484330246 2.7750078991 0.0000000000 -1.0000000000 0.0000000000 -0.0000000000 0.0000000000 0.0000000000 -0.0004416383 0.0000000000 -0.0000000000 -0.0000000000 0.0000000000 0.3430000000 -0.0168000000 0.0058000000 0.0000000000 -0.0157250448 0.1342249921 0.6660018958 0.0194250553 0.1342249921 -0.0011100032 -0.1578500053 0.0849250026 -1.0702280464 -0.0925002633 -23.1551000000 -1.0288749342 0.0777002212 91.3117400000 22234.1000000000 59.7663600000 0.3078000000 1.5344400000 22232.3000000000 0.2963798673 -0.0000000000 -0.6660018958 0.0000000000 1.0755789393 0.0000000000 13.7388312666 -15.3225265444 7.6905255526 -58.9501913750 -1326.6895042034 -9.0441390979 4.8658442260 1.1152714701 FLYING 1
